<NMEA(PQTMVEHATT, NOMINAL, field_01=1, field_02=5934169, field_03=0.000000, field_04=0.000000, field_05=75.519676, field_06=89.989998, field_07=179.990005, field_08=7.961974)>
<NMEA(PQTMDRPVA, NOMINAL, field_01=1, field_02=5934169, field_03=201446.000, field_04=1, field_05=49.18804128, field_06=-123.11684646, field_07=3.632, field_08=-16.829, field_09=0.000, field_10=0.001, field_11=-0.001, field_12=0.001, field_13=0.000000, field_14=0.000000, field_15=75.519676)>
<RTCM(1005, DF002=1005, DF003=3335, DF021=0, DF022=1, DF023=1, DF024=1, DF141=0, DF025=-2281889.0033, DF142=1, DF001_1=0, DF026=-3498163.0208, DF364=0, DF027=4804237.8447)>
<RTCM(1074, DF002=1074, DF003=3335, DF004=159305000, DF393=1, DF409=0, DF001_7=0, DF411=1, DF412=0, DF417=0, DF418=0, DF394=13839180141554565120, NSat=10, DF395=1073742336, NSig=2, DF396=965295, NCell=14, PRN_01=001, PRN_02=002, PRN_03=013, PRN_04=014, PRN_05=015, PRN_06=017, PRN_07=019, PRN_08=022, PRN_09=024, PRN_10=030, DF397_01=78, DF397_02=78, DF397_03=73, DF397_04=69, DF397_05=75, DF397_06=68, DF397_07=71, DF397_08=68, DF397_09=76, DF397_10=76, DF398_01=0.0439453125, DF398_02=0.9482421875, DF398_03=0.5166015625, DF398_04=0.220703125, DF398_05=0.197265625, DF398_06=0.2939453125, DF398_07=0.078125, DF398_08=0.806640625, DF398_09=0.1494140625, DF398_10=0.5078125, CELLPRN_01=001, CELLSIG_01=1C, CELLPRN_02=001, CELLSIG_02=5Q, CELLPRN_03=002, CELLSIG_03=1C, CELLPRN_04=013, CELLSIG_04=1C, CELLPRN_05=014, CELLSIG_05=1C, CELLPRN_06=014, CELLSIG_06=5Q, CELLPRN_07=015, CELLSIG_07=1C, CELLPRN_08=017, CELLSIG_08=1C, CELLPRN_09=019, CELLSIG_09=1C, CELLPRN_10=022, CELLSIG_10=1C, CELLPRN_11=024, CELLSIG_11=1C, CELLPRN_12=024, CELLSIG_12=5Q, CELLPRN_13=030, CELLSIG_13=1C, CELLPRN_14=030, CELLSIG_14=5Q, DF400_01=-0.00037044286727905273, DF400_02=-0.00035250186920166016, DF400_03=5.3882598876953125e-05, DF400_04=0.00030547380447387695, DF400_05=0.00024169683456420898, DF400_06=0.00023359060287475586, DF400_07=5.9723854064941406e-05, DF400_08=-0.00041806697845458984, DF400_09=-1.8656253814697266e-05, DF400_10=0.00039124488830566406, DF400_11=0.0001448988914489746, DF400_12=0.00010251998901367188, DF400_13=-0.0004482865333557129, DF400_14=-0.00041663646697998047, DF401_01=-0.0003296155482530594, DF401_02=-0.00024285167455673218, DF401_03=7.559731602668762e-05, DF401_04=0.000295909121632576, DF401_05=0.00021829083561897278, DF401_06=0.0003137141466140747, DF401_07=5.90495765209198e-05, DF401_08=-0.0003791656345129013, DF401_09=-3.02046537399292e-05, DF401_10=0.00036324188113212585, DF401_11=0.00014415383338928223, DF401_12=0.00016187690198421478, DF401_13=-0.00043863803148269653, DF401_14=-0.00037290528416633606, DF402_01=15, DF402_02=15, DF402_03=15, DF402_04=11, DF402_05=11, DF402_06=15, DF402_07=0, DF402_08=15, DF402_09=12, DF402_10=12, DF402_11=0, DF402_12=12, DF402_13=14, DF402_14=5, DF420_01=0, DF420_02=0, DF420_03=0, DF420_04=0, DF420_05=0, DF420_06=0, DF420_07=1, DF420_08=0, DF420_09=0, DF420_10=0, DF420_11=1, DF420_12=0, DF420_13=0, DF420_14=0, DF403_01=44, DF403_02=47, DF403_03=44, DF403_04=31, DF403_05=38, DF403_06=37, DF403_07=25, DF403_08=34, DF403_09=30, DF403_10=35, DF403_11=24, DF403_12=34, DF403_13=30, DF403_14=25)>
<RTCM(1084, DF002=1084, DF003=3335, DF416=1, DF034=83687000, DF393=1, DF409=0, DF001_7=0, DF411=1, DF412=0, DF417=0, DF418=0, DF394=0, NSat=0, DF395=0, NSig=0, DF396=0, NCell=0)>
<RTCM(1094, DF002=1094, DF003=3335, DF248=159305000, DF393=1, DF409=0, DF001_7=0, DF411=1, DF412=0, DF417=0, DF418=0, DF394=0, NSat=0, DF395=0, NSig=0, DF396=0, NCell=0)>
<RTCM(1124, DF002=1124, DF003=3335, DF427=159291000, DF393=1, DF409=0, DF001_7=0, DF411=1, DF412=0, DF417=0, DF418=0, DF394=0, NSat=0, DF395=0, NSig=0, DF396=0, NCell=0)>
<RTCM(1114, DF002=1114, DF003=3335, DF428=159305000, DF393=0, DF409=0, DF001_7=0, DF411=1, DF412=0, DF417=0, DF418=0, DF394=0, NSat=0, DF395=0, NSig=0, DF396=0, NCell=0)>
<RTCM(1019, DF002=1019, DF009=30, DF076=304, DF077=0, DF078=1, DF079=-7.560174708487466e-11, DF071=24, DF081=165600, DF082=0.0, DF083=8.640199666842818e-12, DF084=-0.00022429926320910454, DF085=24, DF086=-15.84375, DF087=1.5912746675894596e-09, DF088=0.030834850389510393, DF089=-7.618218660354614e-07, DF090=0.007354247267358005, DF091=1.0719522833824158e-05, DF092=5153.740089416504, DF093=165600, DF094=5.960464477539063e-08, DF095=0.20699452329427004, DF096=1.341104507446289e-07, DF097=0.29786618147045374, DF098=159.34375, DF099=-0.7765767597593367, DF100=-2.6483348847250454e-09, DF101=3.725290298461914e-09, DF102=0, DF103=0, DF137=0)>
<RTCM(1019, DF002=1019, DF009=14, DF076=304, DF077=0, DF078=1, DF079=8.36735125631094e-11, DF071=37, DF081=165600, DF082=0.0, DF083=6.821210263296962e-12, DF084=0.0005921642296016216, DF085=805, DF086=99.0625, DF087=1.5934347175061703e-09, DF088=-0.1817395738326013, DF089=5.150213837623596e-06, DF090=0.005274933064356446, DF091=8.691102266311646e-06, DF092=5153.7083950042725, DF093=165600, DF094=1.2479722499847412e-07, DF095=0.5479801655746996, DF096=4.0978193283081055e-08, DF097=0.30042430665344, DF098=201.5625, DF099=-0.9111606036312878, DF100=-2.6707311917562038e-09, DF101=-7.916241884231567e-09, DF102=0, DF103=0, DF137=0)>
<RTCM(1019, DF002=1019, DF009=15, DF076=304, DF077=0, DF078=1, DF079=3.672084858408198e-11, DF071=70, DF081=165584, DF082=0.0, DF083=4.433786671143025e-12, DF084=0.00025934865698218346, DF085=70, DF086=-23.03125, DF087=1.673470251262188e-09, DF088=0.6460318635217845, DF089=-1.469627022743225e-06, DF090=0.016120992717333138, DF091=5.150213837623596e-06, DF092=5153.751167297363, DF093=165584, DF094=1.8998980522155762e-07, DF095=-0.17610172228887677, DF096=-3.073364496231079e-07, DF097=0.2986149648204446, DF098=266.90625, DF099=0.44301020121201873, DF100=-2.663568920979742e-09, DF101=-1.0244548320770264e-08, DF102=0, DF103=0, DF137=0)>
<RTCM(1019, DF002=1019, DF009=19, DF076=304, DF077=0, DF078=1, DF079=-1.9895196601282805e-11, DF071=26, DF081=165600, DF082=0.0, DF083=4.433786671143025e-12, DF084=0.0005939379334449768, DF085=26, DF086=-3.8125, DF087=1.5459136193385348e-09, DF088=-0.4364247927442193, DF089=-1.9744038581848145e-07, DF090=0.010111645911820233, DF091=4.041939973831177e-06, DF092=5153.605508804321, DF093=165600, DF094=-8.009374141693115e-08, DF095=0.9078253535553813, DF096=-1.3597309589385986e-07, DF097=0.3070014822296798, DF098=305.25, DF099=0.8628232232294977, DF100=-2.711203705985099e-09, DF101=-1.5366822481155396e-08, DF102=0, DF103=0, DF137=0)>
<RTCM(1019, DF002=1019, DF009=1, DF076=304, DF077=2, DF078=1, DF079=-5.206857167650014e-11, DF071=8, DF081=165600, DF082=0.0, DF083=2.5920599000528455e-11, DF084=9.738001972436905e-05, DF085=520, DF086=-44.65625, DF087=1.426201379217673e-09, DF088=0.8187515228055418, DF089=-2.25752592086792e-06, DF090=0.000282320543192327, DF091=9.39890742301941e-06, DF092=5153.747863769531, DF093=165600, DF094=4.842877388000488e-08, DF095=-0.7668070960789919, DF096=1.0058283805847168e-07, DF097=0.305547634139657, DF098=195.875, DF099=-0.1961640603840351, DF100=-2.5885356080834754e-09, DF101=-1.3969838619232178e-09, DF102=0, DF103=0, DF137=0)>
<NMEA(GPGGA, time=20:14:47, lat=49.1880412667, NS=N, lon=-123.11684635, EW=W, quality=2, numSV=10, HDOP=0.8, alt=3.634, altUnit=M, sep=-16.83, sepUnit=M, diffAge=, diffStation=)>
<NMEA(GPRMC, time=20:14:47, status=A, lat=49.1880412667, NS=N, lon=-123.11684635, EW=W, spd=0.005, cog=75.52, date=2025-02-03, mv=, mvEW=, posMode=D, navStatus=V)>
<NMEA(GPGLL, lat=49.1880412667, NS=N, lon=-123.11684635, EW=W, time=20:14:47, status=A, posMode=D)>
<NMEA(GPVTG, cogt=75.52, cogtUnit=T, cogm=, cogmUnit=M, sogn=0.005, sognUnit=N, sogk=0.008, sogkUnit=K, posMode=D)>
<NMEA(GPGSA, opMode=A, navMode=3, svid_01=1, svid_02=2, svid_03=13, svid_04=14, svid_05=15, svid_06=17, svid_07=19, svid_08=22, svid_09=24, svid_10=30, svid_11=, svid_12=, PDOP=1.52, HDOP=0.8, VDOP=1.3, systemId=1)>
<NMEA(GPGSV, numMsg=3, msgNum=1, numSV=11, svid_01=1, elv_01=23.0, az_01=60, cno_01=44, svid_02=2, elv_02=24.0, az_02=51, cno_02=44, svid_03=13, elv_03=37.0, az_03=220, cno_03=31, svid_04=14, elv_04=58.0, az_04=74, cno_04=38, signalID=1)>
<NMEA(GPGSV, numMsg=3, msgNum=2, numSV=11, svid_01=15, elv_01=29.0, az_01=264, cno_01=25, svid_02=17, elv_02=72.0, az_02=124, cno_02=34, svid_03=19, elv_03=50.0, az_03=189, cno_03=30, svid_04=22, elv_04=78.0, az_04=43, cno_04=35, signalID=1)>
<NMEA(GPGSV, numMsg=3, msgNum=3, numSV=11, svid_01=24, elv_01=26.0, az_01=306, cno_01=24, svid_02=30, elv_02=27.0, az_02=139, cno_02=30, svid_03=44, elv_03=33.0, az_03=171, cno_03=27, signalID=1)>
<NMEA(GPGSV, numMsg=1, msgNum=1, numSV=4, svid_01=1, elv_01=23.0, az_01=60, cno_01=47, svid_02=14, elv_02=58.0, az_02=74, cno_02=37, svid_03=24, elv_03=26.0, az_03=306, cno_03=34, svid_04=30, elv_04=27.0, az_04=139, cno_04=25, signalID=8)>
<NMEA(PQTMDRCAL, NOMINAL, field_01=1, field_02=0, field_03=1)>
<NMEA(PQTMVEHATT, NOMINAL, field_01=1, field_02=5935169, field_03=0.000000, field_04=0.000000, field_05=75.519676, field_06=89.989998, field_07=179.990005, field_08=7.961974)>
<NMEA(PQTMDRPVA, NOMINAL, field_01=1, field_02=5935169, field_03=201447.000, field_04=1, field_05=49.18804127, field_06=-123.11684635, field_07=3.634, field_08=-16.830, field_09=0.001, field_10=0.002, field_11=-0.000, field_12=0.002, field_13=0.000000, field_14=0.000000, field_15=75.519676)>
<RTCM(1005, DF002=1005, DF003=3335, DF021=0, DF022=1, DF023=1, DF024=1, DF141=0, DF025=-2281889.0112, DF142=1, DF001_1=0, DF026=-3498163.0464000003, DF364=0, DF027=4804237.8589)>
<RTCM(1074, DF002=1074, DF003=3335, DF004=159306000, DF393=1, DF409=0, DF001_7=0, DF411=1, DF412=0, DF417=0, DF418=0, DF394=13839180141554565120, NSat=10, DF395=1073742336, NSig=2, DF396=965295, NCell=14, PRN_01=001, PRN_02=002, PRN_03=013, PRN_04=014, PRN_05=015, PRN_06=017, PRN_07=019, PRN_08=022, PRN_09=024, PRN_10=030, DF397_01=78, DF397_02=78, DF397_03=73, DF397_04=69, DF397_05=75, DF397_06=68, DF397_07=71, DF397_08=68, DF397_09=76, DF397_10=76, DF398_01=0.0439453125, DF398_02=0.94921875, DF398_03=0.5185546875, DF398_04=0.2216796875, DF398_05=0.1982421875, DF398_06=0.2939453125, DF398_07=0.076171875, DF398_08=0.8076171875, DF398_09=0.1474609375, DF398_10=0.509765625, CELLPRN_01=001, CELLSIG_01=1C, CELLPRN_02=001, CELLSIG_02=5Q, CELLPRN_03=002, CELLSIG_03=1C, CELLPRN_04=013, CELLSIG_04=1C, CELLPRN_05=014, CELLSIG_05=1C, CELLPRN_06=014, CELLSIG_06=5Q, CELLPRN_07=015, CELLSIG_07=1C, CELLPRN_08=017, CELLSIG_08=1C, CELLPRN_09=019, CELLSIG_09=1C, CELLPRN_10=022, CELLSIG_10=1C, CELLPRN_11=024, CELLSIG_11=1C, CELLPRN_12=024, CELLSIG_12=5Q, CELLPRN_13=030, CELLSIG_13=1C, CELLPRN_14=030, CELLSIG_14=5Q, DF400_01=-0.0003229379653930664, DF400_02=-0.00030410289764404297, DF400_03=-0.00013816356658935547, DF400_04=0.0001404285430908203, DF400_05=0.00028198957443237305, DF400_06=0.0002745985984802246, DF400_07=0.0001825094223022461, DF400_08=-0.0004668235778808594, DF400_09=0.0002867579460144043, DF400_10=-0.00017517805099487305, DF400_11=0.00010502338409423828, DF400_12=6.145238876342773e-05, DF400_13=-0.0003380775451660156, DF400_14=-0.00030726194381713867, DF401_01=-0.00028120726346969604, DF401_02=-0.00019445084035396576, DF401_03=-0.00011685676872730255, DF401_04=0.00013007968664169312, DF401_05=0.00025951676070690155, DF401_06=0.00035494938492774963, DF401_07=0.00018154829740524292, DF401_08=-0.0004292204976081848, DF401_09=0.00027585774660110474, DF401_10=-0.00020673684775829315, DF401_11=0.00010456517338752747, DF401_12=0.00012107565999031067, DF401_13=-0.00032959505915641785, DF401_14=-0.0002637263387441635, DF402_01=15, DF402_02=15, DF402_03=15, DF402_04=11, DF402_05=11, DF402_06=15, DF402_07=0, DF402_08=15, DF402_09=12, DF402_10=12, DF402_11=0, DF402_12=12, DF402_13=14, DF402_14=6, DF420_01=0, DF420_02=0, DF420_03=0, DF420_04=0, DF420_05=0, DF420_06=0, DF420_07=1, DF420_08=0, DF420_09=0, DF420_10=0, DF420_11=1, DF420_12=0, DF420_13=0, DF420_14=0, DF403_01=44, DF403_02=47, DF403_03=44, DF403_04=32, DF403_05=38, DF403_06=38, DF403_07=25, DF403_08=34, DF403_09=30, DF403_10=35, DF403_11=23, DF403_12=34, DF403_13=29, DF403_14=26)>
<RTCM(1084, DF002=1084, DF003=3335, DF416=1, DF034=83688000, DF393=1, DF409=0, DF001_7=0, DF411=1, DF412=0, DF417=0, DF418=0, DF394=0, NSat=0, DF395=0, NSig=0, DF396=0, NCell=0)>
<RTCM(1094, DF002=1094, DF003=3335, DF248=159306000, DF393=1, DF409=0, DF001_7=0, DF411=1, DF412=0, DF417=0, DF418=0, DF394=0, NSat=0, DF395=0, NSig=0, DF396=0, NCell=0)>
<RTCM(1124, DF002=1124, DF003=3335, DF427=159292000, DF393=1, DF409=0, DF001_7=0, DF411=1, DF412=0, DF417=0, DF418=0, DF394=0, NSat=0, DF395=0, NSig=0, DF396=0, NCell=0)>
<RTCM(1114, DF002=1114, DF003=3335, DF428=159306000, DF393=0, DF409=0, DF001_7=0, DF411=1, DF412=0, DF417=0, DF418=0, DF394=0, NSat=0, DF395=0, NSig=0, DF396=0, NCell=0)>
<RTCM(1019, DF002=1019, DF009=24, DF076=304, DF077=0, DF078=1, DF079=-1.2380496627883986e-10, DF071=47, DF081=165600, DF082=0.0, DF083=4.661160346586257e-12, DF084=-0.0004564025439321995, DF085=47, DF086=-43.09375, DF087=1.6359535948140547e-09, DF088=0.3749683368951082, DF089=-2.251937985420227e-06, DF090=0.016470476402901113, DF091=1.0317191481590271e-05, DF092=5153.689739227295, DF093=165600, DF094=-2.514570951461792e-07, DF095=0.17570431623607874, DF096=-2.0489096641540527e-08, DF097=0.2974426937289536, DF098=170.25, DF099=0.33369729248806834, DF100=-2.7201849661651067e-09, DF101=2.3283064365386963e-09, DF102=0, DF103=0, DF137=0)>
<RTCM(1019, DF002=1019, DF009=22, DF076=304, DF077=0, DF078=1, DF079=9.845280146691948e-11, DF071=89, DF081=165600, DF082=0.0, DF083=-1.7053025658242404e-12, DF084=-9.54633578658104e-05, DF085=89, DF086=112.40625, DF087=1.457010512240231e-09, DF088=-0.8711214615032077, DF089=5.807727575302124e-06, DF090=0.013360955286771059, DF091=8.406117558479309e-06, DF092=5153.67301940918, DF093=165600, DF094=8.568167686462402e-08, DF095=0.5700400075875223, DF096=1.695007085800171e-07, DF097=0.3053210754878819, DF098=211.53125, DF099=-0.3404718656092882, DF100=-2.523847797419876e-09, DF101=-1.1175870895385742e-08, DF102=0, DF103=0, DF137=0)>
<RTCM(1019, DF002=1019, DF009=17, DF076=304, DF077=0, DF078=1, DF079=-5.88897819397971e-11, DF071=41, DF081=165600, DF082=0.0, DF083=-1.8417267710901797e-11, DF084=0.00044303061440587044, DF085=41, DF086=5.4375, DF087=1.5296564015443437e-09, DF088=0.9673412390984595, DF089=4.3958425521850586e-07, DF090=0.013235265156254172, DF091=3.6098062992095947e-06, DF092=5153.620693206787, DF093=165600, DF094=1.825392246246338e-07, DF095=0.8937675799243152, DF096=1.4528632164001465e-07, DF097=0.3072436251677573, DF098=310.5625, DF099=-0.3930799625813961, DF100=-2.6255975171807222e-09, DF101=-1.0710209608078003e-08, DF102=0, DF103=0, DF137=0)>
<RTCM(1019, DF002=1019, DF009=2, DF076=304, DF077=0, DF078=1, DF079=-7.310063665499911e-11, DF071=99, DF081=165600, DF082=0.0, DF083=9.322320693172514e-12, DF084=-0.00025174301117658615, DF085=99, DF086=-50.75, DF087=1.374132807541173e-09, DF088=-0.9934386787936091, DF089=-2.4400651454925537e-06, DF090=0.01653933071065694, DF091=8.678063750267029e-06, DF092=5153.682035446167, DF093=165600, DF094=1.0244548320770264e-07, DF095=-0.8191623776219785, DF096=3.7066638469696045e-07, DF097=0.3076538788154721, DF098=210.15625, DF099=-0.3298261258751154, DF100=-2.4937207854236476e-09, DF101=-1.7695128917694092e-08, DF102=0, DF103=0, DF137=0)>
<RTCM(1019, DF002=1019, DF009=13, DF076=304, DF077=0, DF078=1, DF079=-1.6825651982799172e-11, DF071=40, DF081=165600, DF082=0.0, DF083=1.0231815394945443e-12, DF084=0.0006954469718039036, DF085=40, DF086=-42.6875, DF087=1.4050556274014525e-09, DF088=0.8864637371152639, DF089=-2.2351741790771484e-06, DF090=0.00885970308445394, DF091=6.310641765594482e-06, DF092=5153.676307678223, DF093=165600, DF094=6.891787052154541e-08, DF095=-0.0793601619079709, DF096=-6.332993507385254e-08, DF097=0.3098363010212779, DF098=263.375, DF099=0.3067631945014, DF100=-2.5204371922882274e-09, DF101=-1.1175870895385742e-08, DF102=0, DF103=0, DF137=0)>
<NMEA(GPGGA, time=20:14:48, lat=49.1880412667, NS=N, lon=-123.1168462333, EW=W, quality=2, numSV=10, HDOP=0.8, alt=3.632, altUnit=M, sep=-16.829, sepUnit=M, diffAge=, diffStation=)>
<NMEA(GPRMC, time=20:14:48, status=A, lat=49.1880412667, NS=N, lon=-123.1168462333, EW=W, spd=0.004, cog=75.52, date=2025-02-03, mv=, mvEW=, posMode=D, navStatus=V)>
<NMEA(GPGLL, lat=49.1880412667, NS=N, lon=-123.1168462333, EW=W, time=20:14:48, status=A, posMode=D)>
<NMEA(GPVTG, cogt=75.52, cogtUnit=T, cogm=, cogmUnit=M, sogn=0.004, sognUnit=N, sogk=0.007, sogkUnit=K, posMode=D)>
<NMEA(GPGSA, opMode=A, navMode=3, svid_01=1, svid_02=2, svid_03=13, svid_04=14, svid_05=15, svid_06=17, svid_07=19, svid_08=22, svid_09=24, svid_10=30, svid_11=, svid_12=, PDOP=1.52, HDOP=0.8, VDOP=1.3, systemId=1)>
<NMEA(GPGSV, numMsg=3, msgNum=1, numSV=11, svid_01=1, elv_01=23.0, az_01=60, cno_01=44, svid_02=2, elv_02=24.0, az_02=51, cno_02=44, svid_03=13, elv_03=37.0, az_03=220, cno_03=32, svid_04=14, elv_04=58.0, az_04=74, cno_04=38, signalID=1)>
<NMEA(GPGSV, numMsg=3, msgNum=2, numSV=11, svid_01=15, elv_01=29.0, az_01=264, cno_01=25, svid_02=17, elv_02=72.0, az_02=124, cno_02=34, svid_03=19, elv_03=50.0, az_03=189, cno_03=30, svid_04=22, elv_04=78.0, az_04=43, cno_04=35, signalID=1)>
<NMEA(GPGSV, numMsg=3, msgNum=3, numSV=11, svid_01=24, elv_01=26.0, az_01=306, cno_01=23, svid_02=30, elv_02=27.0, az_02=139, cno_02=29, svid_03=44, elv_03=33.0, az_03=171, cno_03=27, signalID=1)>
<NMEA(GPGSV, numMsg=1, msgNum=1, numSV=4, svid_01=1, elv_01=23.0, az_01=60, cno_01=47, svid_02=14, elv_02=58.0, az_02=74, cno_02=38, svid_03=24, elv_03=26.0, az_03=306, cno_03=34, svid_04=30, elv_04=27.0, az_04=139, cno_04=26, signalID=8)>
<NMEA(PQTMDRCAL, NOMINAL, field_01=1, field_02=0, field_03=1)>
<NMEA(PQTMVEHATT, NOMINAL, field_01=1, field_02=5936169, field_03=0.000000, field_04=0.000000, field_05=75.519676, field_06=89.989998, field_07=179.990005, field_08=7.961974)>
<NMEA(PQTMDRPVA, NOMINAL, field_01=1, field_02=5936169, field_03=201448.000, field_04=1, field_05=49.18804127, field_06=-123.11684624, field_07=3.632, field_08=-16.829, field_09=0.000, field_10=0.002, field_11=0.002, field_12=0.002, field_13=0.000000, field_14=0.000000, field_15=75.519676)>
<RTCM(1005, DF002=1005, DF003=3335, DF021=0, DF022=1, DF023=1, DF024=1, DF141=0, DF025=-2281889.0176, DF142=1, DF001_1=0, DF026=-3498163.0718, DF364=0, DF027=4804237.888)>
<RTCM(1074, DF002=1074, DF003=3335, DF004=159307000, DF393=1, DF409=0, DF001_7=0, DF411=1, DF412=0, DF417=0, DF418=0, DF394=13839180141554565120, NSat=10, DF395=1073742336, NSig=2, DF396=965295, NCell=14, PRN_01=001, PRN_02=002, PRN_03=013, PRN_04=014, PRN_05=015, PRN_06=017, PRN_07=019, PRN_08=022, PRN_09=024, PRN_10=030, DF397_01=78, DF397_02=78, DF397_03=73, DF397_04=69, DF397_05=75, DF397_06=68, DF397_07=71, DF397_08=68, DF397_09=76, DF397_10=76, DF398_01=0.0439453125, DF398_02=0.9501953125, DF398_03=0.5205078125, DF398_04=0.22265625, DF398_05=0.19921875, DF398_06=0.29296875, DF398_07=0.0751953125, DF398_08=0.8076171875, DF398_09=0.1455078125, DF398_10=0.51171875, CELLPRN_01=001, CELLSIG_01=1C, CELLPRN_02=001, CELLSIG_02=5Q, CELLPRN_03=002, CELLSIG_03=1C, CELLPRN_04=013, CELLSIG_04=1C, CELLPRN_05=014, CELLSIG_05=1C, CELLPRN_06=014, CELLSIG_06=5Q, CELLPRN_07=015, CELLSIG_07=1C, CELLPRN_08=017, CELLSIG_08=1C, CELLPRN_09=019, CELLSIG_09=1C, CELLPRN_10=022, CELLSIG_10=1C, CELLPRN_11=024, CELLSIG_11=1C, CELLPRN_12=024, CELLSIG_12=5Q, CELLPRN_13=030, CELLSIG_13=1C, CELLPRN_14=030, CELLSIG_14=5Q, DF400_01=-0.00027441978454589844, DF400_02=-0.00025534629821777344, DF400_03=-0.0003305673599243164, DF400_04=-2.676248550415039e-05, DF400_05=0.00032383203506469727, DF400_06=0.00031560659408569336, DF400_07=0.00030368566513061523, DF400_08=0.00046139955520629883, DF400_09=-0.0003803372383117676, DF400_10=0.00023603439331054688, DF400_11=6.651878356933594e-05, DF400_12=2.0265579223632812e-05, DF400_13=-0.00022673606872558594, DF400_14=-0.00019854307174682617, DF401_01=-0.0002324264496564865, DF401_02=-0.00014566630125045776, DF401_03=-0.00030896812677383423, DF401_04=-3.554485738277435e-05, DF401_05=0.0003009084612131119, DF401_06=0.00039634667336940765, DF401_07=-0.00390625, DF401_08=0.0004976727068424225, DF401_09=-0.0003944113850593567, DF401_10=0.00020002573728561401, DF401_11=6.61257654428482e-05, DF401_12=8.041784167289734e-05, DF401_13=-0.00022039562463760376, DF401_14=-0.00015467405319213867, DF402_01=15, DF402_02=15, DF402_03=15, DF402_04=11, DF402_05=11, DF402_06=15, DF402_07=0, DF402_08=15, DF402_09=12, DF402_10=12, DF402_11=0, DF402_12=12, DF402_13=14, DF402_14=0, DF420_01=0, DF420_02=0, DF420_03=0, DF420_04=0, DF420_05=0, DF420_06=0, DF420_07=1, DF420_08=0, DF420_09=0, DF420_10=0, DF420_11=1, DF420_12=0, DF420_13=0, DF420_14=0, DF403_01=44, DF403_02=46, DF403_03=44, DF403_04=31, DF403_05=38, DF403_06=37, DF403_07=24, DF403_08=34, DF403_09=30, DF403_10=35, DF403_11=22, DF403_12=34, DF403_13=30, DF403_14=25)>
<RTCM(1084, DF002=1084, DF003=3335, DF416=1, DF034=83689000, DF393=1, DF409=0, DF001_7=0, DF411=1, DF412=0, DF417=0, DF418=0, DF394=0, NSat=0, DF395=0, NSig=0, DF396=0, NCell=0)>
<RTCM(1094, DF002=1094, DF003=3335, DF248=159307000, DF393=1, DF409=0, DF001_7=0, DF411=1, DF412=0, DF417=0, DF418=0, DF394=0, NSat=0, DF395=0, NSig=0, DF396=0, NCell=0)>
<RTCM(1124, DF002=1124, DF003=3335, DF427=159293000, DF393=1, DF409=0, DF001_7=0, DF411=1, DF412=0, DF417=0, DF418=0, DF394=0, NSat=0, DF395=0, NSig=0, DF396=0, NCell=0)>
<RTCM(1114, DF002=1114, DF003=3335, DF428=159307000, DF393=0, DF409=0, DF001_7=0, DF411=1, DF412=0, DF417=0, DF418=0, DF394=0, NSat=0, DF395=0, NSig=0, DF396=0, NCell=0)>
<RTCM(1019, DF002=1019, DF009=30, DF076=304, DF077=0, DF078=1, DF079=-7.560174708487466e-11, DF071=24, DF081=165600, DF082=0.0, DF083=8.640199666842818e-12, DF084=-0.00022429926320910454, DF085=24, DF086=-15.84375, DF087=1.5912746675894596e-09, DF088=0.030834850389510393, DF089=-7.618218660354614e-07, DF090=0.007354247267358005, DF091=1.0719522833824158e-05, DF092=5153.740089416504, DF093=165600, DF094=5.960464477539063e-08, DF095=0.20699452329427004, DF096=1.341104507446289e-07, DF097=0.29786618147045374, DF098=159.34375, DF099=-0.7765767597593367, DF100=-2.6483348847250454e-09, DF101=3.725290298461914e-09, DF102=0, DF103=0, DF137=0)>
<RTCM(1019, DF002=1019, DF009=14, DF076=304, DF077=0, DF078=1, DF079=8.36735125631094e-11, DF071=37, DF081=165600, DF082=0.0, DF083=6.821210263296962e-12, DF084=0.0005921642296016216, DF085=805, DF086=99.0625, DF087=1.5934347175061703e-09, DF088=-0.1817395738326013, DF089=5.150213837623596e-06, DF090=0.005274933064356446, DF091=8.691102266311646e-06, DF092=5153.7083950042725, DF093=165600, DF094=1.2479722499847412e-07, DF095=0.5479801655746996, DF096=4.0978193283081055e-08, DF097=0.30042430665344, DF098=201.5625, DF099=-0.9111606036312878, DF100=-2.6707311917562038e-09, DF101=-7.916241884231567e-09, DF102=0, DF103=0, DF137=0)>
<RTCM(1019, DF002=1019, DF009=15, DF076=304, DF077=0, DF078=1, DF079=3.672084858408198e-11, DF071=70, DF081=165584, DF082=0.0, DF083=4.433786671143025e-12, DF084=0.00025934865698218346, DF085=70, DF086=-23.03125, DF087=1.673470251262188e-09, DF088=0.6460318635217845, DF089=-1.469627022743225e-06, DF090=0.016120992717333138, DF091=5.150213837623596e-06, DF092=5153.751167297363, DF093=165584, DF094=1.8998980522155762e-07, DF095=-0.17610172228887677, DF096=-3.073364496231079e-07, DF097=0.2986149648204446, DF098=266.90625, DF099=0.44301020121201873, DF100=-2.663568920979742e-09, DF101=-1.0244548320770264e-08, DF102=0, DF103=0, DF137=0)>
<RTCM(1019, DF002=1019, DF009=19, DF076=304, DF077=0, DF078=1, DF079=-1.9895196601282805e-11, DF071=26, DF081=165600, DF082=0.0, DF083=4.433786671143025e-12, DF084=0.0005939379334449768, DF085=26, DF086=-3.8125, DF087=1.5459136193385348e-09, DF088=-0.4364247927442193, DF089=-1.9744038581848145e-07, DF090=0.010111645911820233, DF091=4.041939973831177e-06, DF092=5153.605508804321, DF093=165600, DF094=-8.009374141693115e-08, DF095=0.9078253535553813, DF096=-1.3597309589385986e-07, DF097=0.3070014822296798, DF098=305.25, DF099=0.8628232232294977, DF100=-2.711203705985099e-09, DF101=-1.5366822481155396e-08, DF102=0, DF103=0, DF137=0)>
<RTCM(1019, DF002=1019, DF009=1, DF076=304, DF077=2, DF078=1, DF079=-5.206857167650014e-11, DF071=8, DF081=165600, DF082=0.0, DF083=2.5920599000528455e-11, DF084=9.738001972436905e-05, DF085=520, DF086=-44.65625, DF087=1.426201379217673e-09, DF088=0.8187515228055418, DF089=-2.25752592086792e-06, DF090=0.000282320543192327, DF091=9.39890742301941e-06, DF092=5153.747863769531, DF093=165600, DF094=4.842877388000488e-08, DF095=-0.7668070960789919, DF096=1.0058283805847168e-07, DF097=0.305547634139657, DF098=195.875, DF099=-0.1961640603840351, DF100=-2.5885356080834754e-09, DF101=-1.3969838619232178e-09, DF102=0, DF103=0, DF137=0)>
<NMEA(GPGGA, time=20:14:49, lat=49.1880412667, NS=N, lon=-123.11684615, EW=W, quality=2, numSV=10, HDOP=0.8, alt=3.632, altUnit=M, sep=-16.83, sepUnit=M, diffAge=, diffStation=)>
<NMEA(GPRMC, time=20:14:49, status=A, lat=49.1880412667, NS=N, lon=-123.11684615, EW=W, spd=0.001, cog=75.52, date=2025-02-03, mv=, mvEW=, posMode=D, navStatus=V)>
<NMEA(GPGLL, lat=49.1880412667, NS=N, lon=-123.11684615, EW=W, time=20:14:49, status=A, posMode=D)>
<NMEA(GPVTG, cogt=75.52, cogtUnit=T, cogm=, cogmUnit=M, sogn=0.001, sognUnit=N, sogk=0.002, sogkUnit=K, posMode=D)>
<NMEA(GPGSA, opMode=A, navMode=3, svid_01=1, svid_02=2, svid_03=13, svid_04=14, svid_05=15, svid_06=17, svid_07=19, svid_08=22, svid_09=24, svid_10=30, svid_11=, svid_12=, PDOP=1.52, HDOP=0.8, VDOP=1.3, systemId=1)>
<NMEA(GPGSV, numMsg=3, msgNum=1, numSV=11, svid_01=1, elv_01=23.0, az_01=60, cno_01=44, svid_02=2, elv_02=24.0, az_02=51, cno_02=44, svid_03=13, elv_03=37.0, az_03=220, cno_03=31, svid_04=14, elv_04=58.0, az_04=74, cno_04=38, signalID=1)>
<NMEA(GPGSV, numMsg=3, msgNum=2, numSV=11, svid_01=15, elv_01=29.0, az_01=264, cno_01=24, svid_02=17, elv_02=72.0, az_02=124, cno_02=34, svid_03=19, elv_03=50.0, az_03=189, cno_03=30, svid_04=22, elv_04=78.0, az_04=43, cno_04=35, signalID=1)>
<NMEA(GPGSV, numMsg=3, msgNum=3, numSV=11, svid_01=24, elv_01=26.0, az_01=306, cno_01=22, svid_02=30, elv_02=27.0, az_02=139, cno_02=30, svid_03=44, elv_03=33.0, az_03=171, cno_03=27, signalID=1)>
<NMEA(GPGSV, numMsg=1, msgNum=1, numSV=4, svid_01=1, elv_01=23.0, az_01=60, cno_01=46, svid_02=14, elv_02=58.0, az_02=74, cno_02=37, svid_03=24, elv_03=26.0, az_03=306, cno_03=34, svid_04=30, elv_04=27.0, az_04=139, cno_04=25, signalID=8)>
<NMEA(PQTMDRCAL, NOMINAL, field_01=1, field_02=0, field_03=1)>
<NMEA(PQTMVEHATT, NOMINAL, field_01=1, field_02=5937169, field_03=0.000000, field_04=0.000000, field_05=75.519676, field_06=89.989998, field_07=179.990005, field_08=7.961974)>
<NMEA(PQTMDRPVA, NOMINAL, field_01=1, field_02=5937169, field_03=201449.000, field_04=1, field_05=49.18804127, field_06=-123.11684614, field_07=3.632, field_08=-16.830, field_09=0.000, field_10=0.000, field_11=-0.000, field_12=0.000, field_13=0.000000, field_14=0.000000, field_15=75.519676)>
<RTCM(1005, DF002=1005, DF003=3335, DF021=0, DF022=1, DF023=1, DF024=1, DF141=0, DF025=-2281889.0368, DF142=1, DF001_1=0, DF026=-3498163.0848000003, DF364=0, DF027=4804237.888)>
<RTCM(1074, DF002=1074, DF003=3335, DF004=159308000, DF393=1, DF409=0, DF001_7=0, DF411=1, DF412=0, DF417=0, DF418=0, DF394=13839180141554565120, NSat=10, DF395=1073742336, NSig=2, DF396=965295, NCell=14, PRN_01=001, PRN_02=002, PRN_03=013, PRN_04=014, PRN_05=015, PRN_06=017, PRN_07=019, PRN_08=022, PRN_09=024, PRN_10=030, DF397_01=78, DF397_02=78, DF397_03=73, DF397_04=69, DF397_05=75, DF397_06=68, DF397_07=71, DF397_08=68, DF397_09=76, DF397_10=76, DF398_01=0.0439453125, DF398_02=0.9501953125, DF398_03=0.5224609375, DF398_04=0.2236328125, DF398_05=0.2001953125, DF398_06=0.29296875, DF398_07=0.0732421875, DF398_08=0.80859375, DF398_09=0.1435546875, DF398_10=0.513671875, CELLPRN_01=001, CELLSIG_01=1C, CELLPRN_02=001, CELLSIG_02=5Q, CELLPRN_03=002, CELLSIG_03=1C, CELLPRN_04=013, CELLSIG_04=1C, CELLPRN_05=014, CELLSIG_05=1C, CELLPRN_06=014, CELLSIG_06=5Q, CELLPRN_07=015, CELLSIG_07=1C, CELLPRN_08=017, CELLSIG_08=1C, CELLPRN_09=019, CELLSIG_09=1C, CELLPRN_10=022, CELLSIG_10=1C, CELLPRN_11=024, CELLSIG_11=1C, CELLPRN_12=024, CELLSIG_12=5Q, CELLPRN_13=030, CELLSIG_13=1C, CELLPRN_14=030, CELLSIG_14=5Q, DF400_01=-0.00022470951080322266, DF400_02=-0.00020587444305419922, DF400_03=0.0004546642303466797, DF400_04=-0.00019419193267822266, DF400_05=0.00036656856536865234, DF400_06=0.00035709142684936523, DF400_07=0.00042515993118286133, DF400_08=0.0004138946533203125, DF400_09=-7.325410842895508e-05, DF400_10=-0.00033086538314819336, DF400_11=2.682209014892578e-05, DF400_12=-2.0205974578857422e-05, DF400_13=-0.00011670589447021484, DF400_14=-8.869171142578125e-05, DF401_01=-0.0001829061657190323, DF401_02=-9.617209434509277e-05, DF401_03=0.0004761684685945511, DF401_04=-0.00020050443708896637, DF401_05=0.0003428608179092407, DF401_06=0.00043826550245285034, DF401_07=-0.00390625, DF401_08=0.000448690727353096, DF401_09=-8.751265704631805e-05, DF401_10=-0.000369243323802948, DF401_11=2.6309862732887268e-05, DF401_12=4.0316954255104065e-05, DF401_13=-0.00011068955063819885, DF401_14=-4.407763481140137e-05, DF402_01=15, DF402_02=15, DF402_03=15, DF402_04=11, DF402_05=11, DF402_06=15, DF402_07=0, DF402_08=15, DF402_09=12, DF402_10=12, DF402_11=0, DF402_12=12, DF402_13=14, DF402_14=6, DF420_01=0, DF420_02=0, DF420_03=0, DF420_04=0, DF420_05=0, DF420_06=0, DF420_07=1, DF420_08=0, DF420_09=0, DF420_10=0, DF420_11=1, DF420_12=0, DF420_13=0, DF420_14=0, DF403_01=44, DF403_02=47, DF403_03=44, DF403_04=30, DF403_05=38, DF403_06=37, DF403_07=25, DF403_08=34, DF403_09=31, DF403_10=36, DF403_11=24, DF403_12=34, DF403_13=30, DF403_14=25)>
<RTCM(1084, DF002=1084, DF003=3335, DF416=1, DF034=83690000, DF393=1, DF409=0, DF001_7=0, DF411=1, DF412=0, DF417=0, DF418=0, DF394=0, NSat=0, DF395=0, NSig=0, DF396=0, NCell=0)>
<RTCM(1094, DF002=1094, DF003=3335, DF248=159308000, DF393=1, DF409=0, DF001_7=0, DF411=1, DF412=0, DF417=0, DF418=0, DF394=0, NSat=0, DF395=0, NSig=0, DF396=0, NCell=0)>
<RTCM(1124, DF002=1124, DF003=3335, DF427=159294000, DF393=1, DF409=0, DF001_7=0, DF411=1, DF412=0, DF417=0, DF418=0, DF394=0, NSat=0, DF395=0, NSig=0, DF396=0, NCell=0)>
<RTCM(1114, DF002=1114, DF003=3335, DF428=159308000, DF393=0, DF409=0, DF001_7=0, DF411=1, DF412=0, DF417=0, DF418=0, DF394=0, NSat=0, DF395=0, NSig=0, DF396=0, NCell=0)>
<RTCM(1019, DF002=1019, DF009=24, DF076=304, DF077=0, DF078=1, DF079=-1.2380496627883986e-10, DF071=47, DF081=165600, DF082=0.0, DF083=4.661160346586257e-12, DF084=-0.0004564025439321995, DF085=47, DF086=-43.09375, DF087=1.6359535948140547e-09, DF088=0.3749683368951082, DF089=-2.251937985420227e-06, DF090=0.016470476402901113, DF091=1.0317191481590271e-05, DF092=5153.689739227295, DF093=165600, DF094=-2.514570951461792e-07, DF095=0.17570431623607874, DF096=-2.0489096641540527e-08, DF097=0.2974426937289536, DF098=170.25, DF099=0.33369729248806834, DF100=-2.7201849661651067e-09, DF101=2.3283064365386963e-09, DF102=0, DF103=0, DF137=0)>
<RTCM(1019, DF002=1019, DF009=22, DF076=304, DF077=0, DF078=1, DF079=9.845280146691948e-11, DF071=89, DF081=165600, DF082=0.0, DF083=-1.7053025658242404e-12, DF084=-9.54633578658104e-05, DF085=89, DF086=112.40625, DF087=1.457010512240231e-09, DF088=-0.8711214615032077, DF089=5.807727575302124e-06, DF090=0.013360955286771059, DF091=8.406117558479309e-06, DF092=5153.67301940918, DF093=165600, DF094=8.568167686462402e-08, DF095=0.5700400075875223, DF096=1.695007085800171e-07, DF097=0.3053210754878819, DF098=211.53125, DF099=-0.3404718656092882, DF100=-2.523847797419876e-09, DF101=-1.1175870895385742e-08, DF102=0, DF103=0, DF137=0)>
<RTCM(1019, DF002=1019, DF009=17, DF076=304, DF077=0, DF078=1, DF079=-5.88897819397971e-11, DF071=41, DF081=165600, DF082=0.0, DF083=-1.8417267710901797e-11, DF084=0.00044303061440587044, DF085=41, DF086=5.4375, DF087=1.5296564015443437e-09, DF088=0.9673412390984595, DF089=4.3958425521850586e-07, DF090=0.013235265156254172, DF091=3.6098062992095947e-06, DF092=5153.620693206787, DF093=165600, DF094=1.825392246246338e-07, DF095=0.8937675799243152, DF096=1.4528632164001465e-07, DF097=0.3072436251677573, DF098=310.5625, DF099=-0.3930799625813961, DF100=-2.6255975171807222e-09, DF101=-1.0710209608078003e-08, DF102=0, DF103=0, DF137=0)>
<RTCM(1019, DF002=1019, DF009=2, DF076=304, DF077=0, DF078=1, DF079=-7.310063665499911e-11, DF071=99, DF081=165600, DF082=0.0, DF083=9.322320693172514e-12, DF084=-0.00025174301117658615, DF085=99, DF086=-50.75, DF087=1.374132807541173e-09, DF088=-0.9934386787936091, DF089=-2.4400651454925537e-06, DF090=0.01653933071065694, DF091=8.678063750267029e-06, DF092=5153.682035446167, DF093=165600, DF094=1.0244548320770264e-07, DF095=-0.8191623776219785, DF096=3.7066638469696045e-07, DF097=0.3076538788154721, DF098=210.15625, DF099=-0.3298261258751154, DF100=-2.4937207854236476e-09, DF101=-1.7695128917694092e-08, DF102=0, DF103=0, DF137=0)>
<RTCM(1019, DF002=1019, DF009=13, DF076=304, DF077=0, DF078=1, DF079=-1.6825651982799172e-11, DF071=40, DF081=165600, DF082=0.0, DF083=1.0231815394945443e-12, DF084=0.0006954469718039036, DF085=40, DF086=-42.6875, DF087=1.4050556274014525e-09, DF088=0.8864637371152639, DF089=-2.2351741790771484e-06, DF090=0.00885970308445394, DF091=6.310641765594482e-06, DF092=5153.676307678223, DF093=165600, DF094=6.891787052154541e-08, DF095=-0.0793601619079709, DF096=-6.332993507385254e-08, DF097=0.3098363010212779, DF098=263.375, DF099=0.3067631945014, DF100=-2.5204371922882274e-09, DF101=-1.1175870895385742e-08, DF102=0, DF103=0, DF137=0)>
<NMEA(GPGGA, time=20:14:50, lat=49.1880412667, NS=N, lon=-123.1168460333, EW=W, quality=2, numSV=10, HDOP=0.8, alt=3.631, altUnit=M, sep=-16.83, sepUnit=M, diffAge=, diffStation=)>
<NMEA(GPRMC, time=20:14:50, status=A, lat=49.1880412667, NS=N, lon=-123.1168460333, EW=W, spd=0.003, cog=75.52, date=2025-02-03, mv=, mvEW=, posMode=D, navStatus=V)>
<NMEA(GPGLL, lat=49.1880412667, NS=N, lon=-123.1168460333, EW=W, time=20:14:50, status=A, posMode=D)>
<NMEA(GPVTG, cogt=75.52, cogtUnit=T, cogm=, cogmUnit=M, sogn=0.003, sognUnit=N, sogk=0.005, sogkUnit=K, posMode=D)>
<NMEA(GPGSA, opMode=A, navMode=3, svid_01=1, svid_02=2, svid_03=13, svid_04=14, svid_05=15, svid_06=17, svid_07=19, svid_08=22, svid_09=24, svid_10=30, svid_11=, svid_12=, PDOP=1.52, HDOP=0.8, VDOP=1.3, systemId=1)>
<NMEA(GPGSV, numMsg=3, msgNum=1, numSV=11, svid_01=1, elv_01=23.0, az_01=60, cno_01=44, svid_02=2, elv_02=24.0, az_02=51, cno_02=44, svid_03=13, elv_03=37.0, az_03=220, cno_03=30, svid_04=14, elv_04=58.0, az_04=74, cno_04=38, signalID=1)>
<NMEA(GPGSV, numMsg=3, msgNum=2, numSV=11, svid_01=15, elv_01=29.0, az_01=264, cno_01=25, svid_02=17, elv_02=72.0, az_02=124, cno_02=34, svid_03=19, elv_03=50.0, az_03=189, cno_03=31, svid_04=22, elv_04=78.0, az_04=43, cno_04=36, signalID=1)>
<NMEA(GPGSV, numMsg=3, msgNum=3, numSV=11, svid_01=24, elv_01=26.0, az_01=306, cno_01=24, svid_02=30, elv_02=27.0, az_02=139, cno_02=30, svid_03=44, elv_03=33.0, az_03=171, cno_03=27, signalID=1)>
<NMEA(GPGSV, numMsg=1, msgNum=1, numSV=4, svid_01=1, elv_01=23.0, az_01=60, cno_01=47, svid_02=14, elv_02=58.0, az_02=74, cno_02=37, svid_03=24, elv_03=26.0, az_03=306, cno_03=34, svid_04=30, elv_04=27.0, az_04=139, cno_04=25, signalID=8)>
<NMEA(PQTMDRCAL, NOMINAL, field_01=1, field_02=0, field_03=1)>
<NMEA(PQTMVEHATT, NOMINAL, field_01=1, field_02=5938169, field_03=0.000000, field_04=0.000000, field_05=75.519676, field_06=89.989998, field_07=179.990005, field_08=7.961974)>
<NMEA(PQTMDRPVA, NOMINAL, field_01=1, field_02=5938169, field_03=201450.000, field_04=1, field_05=49.18804127, field_06=-123.11684603, field_07=3.631, field_08=-16.830, field_09=0.000, field_10=0.001, field_11=0.002, field_12=0.001, field_13=0.000000, field_14=0.000000, field_15=75.519676)>
<RTCM(1005, DF002=1005, DF003=3335, DF021=0, DF022=1, DF023=1, DF024=1, DF141=0, DF025=-2281889.0496, DF142=1, DF001_1=0, DF026=-3498163.1023000004, DF364=0, DF027=4804237.8846)>
<RTCM(1074, DF002=1074, DF003=3335, DF004=159309000, DF393=1, DF409=0, DF001_7=0, DF411=1, DF412=0, DF417=0, DF418=0, DF394=13839180141554565120, NSat=10, DF395=1073742336, NSig=2, DF396=965295, NCell=14, PRN_01=001, PRN_02=002, PRN_03=013, PRN_04=014, PRN_05=015, PRN_06=017, PRN_07=019, PRN_08=022, PRN_09=024, PRN_10=030, DF397_01=78, DF397_02=78, DF397_03=73, DF397_04=69, DF397_05=75, DF397_06=68, DF397_07=71, DF397_08=68, DF397_09=76, DF397_10=76, DF398_01=0.0439453125, DF398_02=0.951171875, DF398_03=0.5244140625, DF398_04=0.224609375, DF398_05=0.2021484375, DF398_06=0.29296875, DF398_07=0.0712890625, DF398_08=0.80859375, DF398_09=0.1416015625, DF398_10=0.515625, CELLPRN_01=001, CELLSIG_01=1C, CELLPRN_02=001, CELLSIG_02=5Q, CELLPRN_03=002, CELLSIG_03=1C, CELLPRN_04=013, CELLSIG_04=1C, CELLPRN_05=014, CELLSIG_05=1C, CELLPRN_06=014, CELLSIG_06=5Q, CELLPRN_07=015, CELLSIG_07=1C, CELLPRN_08=017, CELLSIG_08=1C, CELLPRN_09=019, CELLSIG_09=1C, CELLPRN_10=022, CELLSIG_10=1C, CELLPRN_11=024, CELLSIG_11=1C, CELLPRN_12=024, CELLSIG_12=5Q, CELLPRN_13=030, CELLSIG_13=1C, CELLPRN_14=030, CELLSIG_14=5Q, DF400_01=-0.00017583370208740234, DF400_02=-0.00015628337860107422, DF400_03=0.00026303529739379883, DF400_04=-0.0003561973571777344, DF400_05=0.0004088878631591797, DF400_06=0.00039887428283691406, DF400_07=-0.0004245638847351074, DF400_08=0.0003649592399597168, DF400_09=0.00023740530014038086, DF400_10=7.855892181396484e-05, DF400_11=-1.2636184692382812e-05, DF400_12=-6.008148193359375e-05, DF400_13=-5.9604644775390625e-06, DF400_14=2.1338462829589844e-05, DF401_01=-0.00013330765068531036, DF401_02=-4.656985402107239e-05, DF401_03=0.00028478167951107025, DF401_04=-0.0003655683249235153, DF401_05=0.00038467906415462494, DF401_06=0.0004800930619239807, DF401_07=-0.00390625, DF401_08=0.000399760901927948, DF401_09=0.00021934881806373596, DF401_10=3.794953227043152e-05, DF401_11=-1.3597309589385986e-05, DF401_12=1.0244548320770264e-07, DF401_13=-1.1380761861801147e-06, DF401_14=6.553344428539276e-05, DF402_01=15, DF402_02=15, DF402_03=15, DF402_04=11, DF402_05=11, DF402_06=15, DF402_07=0, DF402_08=15, DF402_09=12, DF402_10=12, DF402_11=0, DF402_12=12, DF402_13=14, DF402_14=7, DF420_01=0, DF420_02=0, DF420_03=0, DF420_04=0, DF420_05=0, DF420_06=0, DF420_07=1, DF420_08=0, DF420_09=0, DF420_10=0, DF420_11=1, DF420_12=0, DF420_13=0, DF420_14=0, DF403_01=44, DF403_02=47, DF403_03=44, DF403_04=31, DF403_05=39, DF403_06=37, DF403_07=26, DF403_08=34, DF403_09=30, DF403_10=36, DF403_11=23, DF403_12=34, DF403_13=30, DF403_14=25)>
<RTCM(1084, DF002=1084, DF003=3335, DF416=1, DF034=83691000, DF393=1, DF409=0, DF001_7=0, DF411=1, DF412=0, DF417=0, DF418=0, DF394=0, NSat=0, DF395=0, NSig=0, DF396=0, NCell=0)>
<RTCM(1094, DF002=1094, DF003=3335, DF248=159309000, DF393=1, DF409=0, DF001_7=0, DF411=1, DF412=0, DF417=0, DF418=0, DF394=0, NSat=0, DF395=0, NSig=0, DF396=0, NCell=0)>
<RTCM(1124, DF002=1124, DF003=3335, DF427=159295000, DF393=1, DF409=0, DF001_7=0, DF411=1, DF412=0, DF417=0, DF418=0, DF394=0, NSat=0, DF395=0, NSig=0, DF396=0, NCell=0)>
<RTCM(1114, DF002=1114, DF003=3335, DF428=159309000, DF393=0, DF409=0, DF001_7=0, DF411=1, DF412=0, DF417=0, DF418=0, DF394=0, NSat=0, DF395=0, NSig=0, DF396=0, NCell=0)>
<RTCM(1019, DF002=1019, DF009=30, DF076=304, DF077=0, DF078=1, DF079=-7.560174708487466e-11, DF071=24, DF081=165600, DF082=0.0, DF083=8.640199666842818e-12, DF084=-0.00022429926320910454, DF085=24, DF086=-15.84375, DF087=1.5912746675894596e-09, DF088=0.030834850389510393, DF089=-7.618218660354614e-07, DF090=0.007354247267358005, DF091=1.0719522833824158e-05, DF092=5153.740089416504, DF093=165600, DF094=5.960464477539063e-08, DF095=0.20699452329427004, DF096=1.341104507446289e-07, DF097=0.29786618147045374, DF098=159.34375, DF099=-0.7765767597593367, DF100=-2.6483348847250454e-09, DF101=3.725290298461914e-09, DF102=0, DF103=0, DF137=0)>
<RTCM(1019, DF002=1019, DF009=14, DF076=304, DF077=0, DF078=1, DF079=8.36735125631094e-11, DF071=37, DF081=165600, DF082=0.0, DF083=6.821210263296962e-12, DF084=0.0005921642296016216, DF085=805, DF086=99.0625, DF087=1.5934347175061703e-09, DF088=-0.1817395738326013, DF089=5.150213837623596e-06, DF090=0.005274933064356446, DF091=8.691102266311646e-06, DF092=5153.7083950042725, DF093=165600, DF094=1.2479722499847412e-07, DF095=0.5479801655746996, DF096=4.0978193283081055e-08, DF097=0.30042430665344, DF098=201.5625, DF099=-0.9111606036312878, DF100=-2.6707311917562038e-09, DF101=-7.916241884231567e-09, DF102=0, DF103=0, DF137=0)>
<RTCM(1019, DF002=1019, DF009=15, DF076=304, DF077=0, DF078=1, DF079=3.672084858408198e-11, DF071=70, DF081=165584, DF082=0.0, DF083=4.433786671143025e-12, DF084=0.00025934865698218346, DF085=70, DF086=-23.03125, DF087=1.673470251262188e-09, DF088=0.6460318635217845, DF089=-1.469627022743225e-06, DF090=0.016120992717333138, DF091=5.150213837623596e-06, DF092=5153.751167297363, DF093=165584, DF094=1.8998980522155762e-07, DF095=-0.17610172228887677, DF096=-3.073364496231079e-07, DF097=0.2986149648204446, DF098=266.90625, DF099=0.44301020121201873, DF100=-2.663568920979742e-09, DF101=-1.0244548320770264e-08, DF102=0, DF103=0, DF137=0)>
<RTCM(1019, DF002=1019, DF009=19, DF076=304, DF077=0, DF078=1, DF079=-1.9895196601282805e-11, DF071=26, DF081=165600, DF082=0.0, DF083=4.433786671143025e-12, DF084=0.0005939379334449768, DF085=26, DF086=-3.8125, DF087=1.5459136193385348e-09, DF088=-0.4364247927442193, DF089=-1.9744038581848145e-07, DF090=0.010111645911820233, DF091=4.041939973831177e-06, DF092=5153.605508804321, DF093=165600, DF094=-8.009374141693115e-08, DF095=0.9078253535553813, DF096=-1.3597309589385986e-07, DF097=0.3070014822296798, DF098=305.25, DF099=0.8628232232294977, DF100=-2.711203705985099e-09, DF101=-1.5366822481155396e-08, DF102=0, DF103=0, DF137=0)>
<RTCM(1019, DF002=1019, DF009=1, DF076=304, DF077=2, DF078=1, DF079=-5.206857167650014e-11, DF071=8, DF081=165600, DF082=0.0, DF083=2.5920599000528455e-11, DF084=9.738001972436905e-05, DF085=520, DF086=-44.65625, DF087=1.426201379217673e-09, DF088=0.8187515228055418, DF089=-2.25752592086792e-06, DF090=0.000282320543192327, DF091=9.39890742301941e-06, DF092=5153.747863769531, DF093=165600, DF094=4.842877388000488e-08, DF095=-0.7668070960789919, DF096=1.0058283805847168e-07, DF097=0.305547634139657, DF098=195.875, DF099=-0.1961640603840351, DF100=-2.5885356080834754e-09, DF101=-1.3969838619232178e-09, DF102=0, DF103=0, DF137=0)>
<NMEA(GPGGA, time=20:14:51, lat=49.1880412667, NS=N, lon=-123.1168459, EW=W, quality=2, numSV=10, HDOP=0.8, alt=3.627, altUnit=M, sep=-16.83, sepUnit=M, diffAge=, diffStation=)>
<NMEA(GPRMC, time=20:14:51, status=A, lat=49.1880412667, NS=N, lon=-123.1168459, EW=W, spd=0.004, cog=75.52, date=2025-02-03, mv=, mvEW=, posMode=D, navStatus=V)>
<NMEA(GPGLL, lat=49.1880412667, NS=N, lon=-123.1168459, EW=W, time=20:14:51, status=A, posMode=D)>
<NMEA(GPVTG, cogt=75.52, cogtUnit=T, cogm=, cogmUnit=M, sogn=0.004, sognUnit=N, sogk=0.007, sogkUnit=K, posMode=D)>
<NMEA(GPGSA, opMode=A, navMode=3, svid_01=1, svid_02=2, svid_03=13, svid_04=14, svid_05=15, svid_06=17, svid_07=19, svid_08=22, svid_09=24, svid_10=30, svid_11=, svid_12=, PDOP=1.52, HDOP=0.8, VDOP=1.3, systemId=1)>
<NMEA(GPGSV, numMsg=3, msgNum=1, numSV=11, svid_01=1, elv_01=23.0, az_01=60, cno_01=44, svid_02=2, elv_02=24.0, az_02=51, cno_02=44, svid_03=13, elv_03=37.0, az_03=220, cno_03=31, svid_04=14, elv_04=58.0, az_04=74, cno_04=39, signalID=1)>
<NMEA(GPGSV, numMsg=3, msgNum=2, numSV=11, svid_01=15, elv_01=29.0, az_01=264, cno_01=26, svid_02=17, elv_02=72.0, az_02=124, cno_02=34, svid_03=19, elv_03=50.0, az_03=189, cno_03=30, svid_04=22, elv_04=78.0, az_04=43, cno_04=36, signalID=1)>
<NMEA(GPGSV, numMsg=3, msgNum=3, numSV=11, svid_01=24, elv_01=26.0, az_01=306, cno_01=23, svid_02=30, elv_02=27.0, az_02=139, cno_02=30, svid_03=44, elv_03=33.0, az_03=171, cno_03=27, signalID=1)>
<NMEA(GPGSV, numMsg=1, msgNum=1, numSV=4, svid_01=1, elv_01=23.0, az_01=60, cno_01=47, svid_02=14, elv_02=58.0, az_02=74, cno_02=37, svid_03=24, elv_03=26.0, az_03=306, cno_03=34, svid_04=30, elv_04=27.0, az_04=139, cno_04=25, signalID=8)>
<NMEA(PQTMDRCAL, NOMINAL, field_01=1, field_02=0, field_03=1)>
<NMEA(PQTMVEHATT, NOMINAL, field_01=1, field_02=5939169, field_03=0.000000, field_04=0.000000, field_05=75.519676, field_06=89.989998, field_07=179.990005, field_08=7.961974)>
<NMEA(PQTMDRPVA, NOMINAL, field_01=1, field_02=5939169, field_03=201451.000, field_04=1, field_05=49.18804127, field_06=-123.11684590, field_07=3.627, field_08=-16.830, field_09=0.001, field_10=0.002, field_11=0.002, field_12=0.002, field_13=0.000000, field_14=0.000000, field_15=75.519676)>
<RTCM(1005, DF002=1005, DF003=3335, DF021=0, DF022=1, DF023=1, DF024=1, DF141=0, DF025=-2281889.0496, DF142=1, DF001_1=0, DF026=-3498163.1095000003, DF364=0, DF027=4804237.894400001)>
<RTCM(1074, DF002=1074, DF003=3335, DF004=159310000, DF393=1, DF409=0, DF001_7=0, DF411=1, DF412=0, DF417=0, DF418=0, DF394=13839180141554565120, NSat=10, DF395=1073742336, NSig=2, DF396=965295, NCell=14, PRN_01=001, PRN_02=002, PRN_03=013, PRN_04=014, PRN_05=015, PRN_06=017, PRN_07=019, PRN_08=022, PRN_09=024, PRN_10=030, DF397_01=78, DF397_02=78, DF397_03=73, DF397_04=69, DF397_05=75, DF397_06=68, DF397_07=71, DF397_08=68, DF397_09=76, DF397_10=76, DF398_01=0.0439453125, DF398_02=0.9521484375, DF398_03=0.525390625, DF398_04=0.2255859375, DF398_05=0.203125, DF398_06=0.29296875, DF398_07=0.0703125, DF398_08=0.80859375, DF398_09=0.1396484375, DF398_10=0.517578125, CELLPRN_01=001, CELLSIG_01=1C, CELLPRN_02=001, CELLSIG_02=5Q, CELLPRN_03=002, CELLSIG_03=1C, CELLPRN_04=013, CELLSIG_04=1C, CELLPRN_05=014, CELLSIG_05=1C, CELLPRN_06=014, CELLSIG_06=5Q, CELLPRN_07=015, CELLSIG_07=1C, CELLPRN_08=017, CELLSIG_08=1C, CELLPRN_09=019, CELLSIG_09=1C, CELLPRN_10=022, CELLSIG_10=1C, CELLPRN_11=024, CELLSIG_11=1C, CELLPRN_12=024, CELLSIG_12=5Q, CELLPRN_13=030, CELLSIG_13=1C, CELLPRN_14=030, CELLSIG_14=5Q, DF400_01=-0.00012677907943725586, DF400_02=-0.00010627508163452148, DF400_03=7.176399230957031e-05, DF400_04=0.0004563331604003906, DF400_05=0.0004531741142272949, DF400_06=0.0004406571388244629, DF400_07=-0.00029987096786499023, DF400_08=0.0003151893615722656, DF400_09=-0.00043523311614990234, DF400_10=0.00048792362213134766, DF400_11=-5.608797073364258e-05, DF400_12=-0.00010013580322265625, DF400_13=0.00010377168655395508, DF400_14=0.0001310110092163086, DF401_01=-8.328631520271301e-05, DF401_02=3.46451997756958e-06, DF401_03=9.378045797348022e-05, DF401_04=0.00044623762369155884, DF401_05=0.000426730141043663, DF401_06=0.0005221385508775711, DF401_07=-0.00390625, DF401_08=0.0003512036055326462, DF401_09=-0.0004500504583120346, DF401_10=0.00044537894427776337, DF401_11=-5.678832530975342e-05, DF401_12=-3.9869919419288635e-05, DF401_13=0.00010862760245800018, DF401_14=0.0001752413809299469, DF402_01=15, DF402_02=15, DF402_03=15, DF402_04=11, DF402_05=11, DF402_06=15, DF402_07=0, DF402_08=15, DF402_09=12, DF402_10=12, DF402_11=0, DF402_12=12, DF402_13=14, DF402_14=0, DF420_01=0, DF420_02=0, DF420_03=0, DF420_04=0, DF420_05=0, DF420_06=0, DF420_07=1, DF420_08=0, DF420_09=0, DF420_10=0, DF420_11=1, DF420_12=0, DF420_13=0, DF420_14=0, DF403_01=44, DF403_02=46, DF403_03=44, DF403_04=31, DF403_05=39, DF403_06=37, DF403_07=25, DF403_08=35, DF403_09=30, DF403_10=36, DF403_11=23, DF403_12=33, DF403_13=30, DF403_14=25)>
<RTCM(1084, DF002=1084, DF003=3335, DF416=1, DF034=83692000, DF393=1, DF409=0, DF001_7=0, DF411=1, DF412=0, DF417=0, DF418=0, DF394=0, NSat=0, DF395=0, NSig=0, DF396=0, NCell=0)>
<RTCM(1094, DF002=1094, DF003=3335, DF248=159310000, DF393=1, DF409=0, DF001_7=0, DF411=1, DF412=0, DF417=0, DF418=0, DF394=0, NSat=0, DF395=0, NSig=0, DF396=0, NCell=0)>
<RTCM(1124, DF002=1124, DF003=3335, DF427=159296000, DF393=1, DF409=0, DF001_7=0, DF411=1, DF412=0, DF417=0, DF418=0, DF394=0, NSat=0, DF395=0, NSig=0, DF396=0, NCell=0)>
<RTCM(1114, DF002=1114, DF003=3335, DF428=159310000, DF393=0, DF409=0, DF001_7=0, DF411=1, DF412=0, DF417=0, DF418=0, DF394=0, NSat=0, DF395=0, NSig=0, DF396=0, NCell=0)>
<RTCM(1019, DF002=1019, DF009=24, DF076=304, DF077=0, DF078=1, DF079=-1.2380496627883986e-10, DF071=47, DF081=165600, DF082=0.0, DF083=4.661160346586257e-12, DF084=-0.0004564025439321995, DF085=47, DF086=-43.09375, DF087=1.6359535948140547e-09, DF088=0.3749683368951082, DF089=-2.251937985420227e-06, DF090=0.016470476402901113, DF091=1.0317191481590271e-05, DF092=5153.689739227295, DF093=165600, DF094=-2.514570951461792e-07, DF095=0.17570431623607874, DF096=-2.0489096641540527e-08, DF097=0.2974426937289536, DF098=170.25, DF099=0.33369729248806834, DF100=-2.7201849661651067e-09, DF101=2.3283064365386963e-09, DF102=0, DF103=0, DF137=0)>
<RTCM(1019, DF002=1019, DF009=22, DF076=304, DF077=0, DF078=1, DF079=9.845280146691948e-11, DF071=89, DF081=165600, DF082=0.0, DF083=-1.7053025658242404e-12, DF084=-9.54633578658104e-05, DF085=89, DF086=112.40625, DF087=1.457010512240231e-09, DF088=-0.8711214615032077, DF089=5.807727575302124e-06, DF090=0.013360955286771059, DF091=8.406117558479309e-06, DF092=5153.67301940918, DF093=165600, DF094=8.568167686462402e-08, DF095=0.5700400075875223, DF096=1.695007085800171e-07, DF097=0.3053210754878819, DF098=211.53125, DF099=-0.3404718656092882, DF100=-2.523847797419876e-09, DF101=-1.1175870895385742e-08, DF102=0, DF103=0, DF137=0)>
<RTCM(1019, DF002=1019, DF009=17, DF076=304, DF077=0, DF078=1, DF079=-5.88897819397971e-11, DF071=41, DF081=165600, DF082=0.0, DF083=-1.8417267710901797e-11, DF084=0.00044303061440587044, DF085=41, DF086=5.4375, DF087=1.5296564015443437e-09, DF088=0.9673412390984595, DF089=4.3958425521850586e-07, DF090=0.013235265156254172, DF091=3.6098062992095947e-06, DF092=5153.620693206787, DF093=165600, DF094=1.825392246246338e-07, DF095=0.8937675799243152, DF096=1.4528632164001465e-07, DF097=0.3072436251677573, DF098=310.5625, DF099=-0.3930799625813961, DF100=-2.6255975171807222e-09, DF101=-1.0710209608078003e-08, DF102=0, DF103=0, DF137=0)>
<RTCM(1019, DF002=1019, DF009=2, DF076=304, DF077=0, DF078=1, DF079=-7.310063665499911e-11, DF071=99, DF081=165600, DF082=0.0, DF083=9.322320693172514e-12, DF084=-0.00025174301117658615, DF085=99, DF086=-50.75, DF087=1.374132807541173e-09, DF088=-0.9934386787936091, DF089=-2.4400651454925537e-06, DF090=0.01653933071065694, DF091=8.678063750267029e-06, DF092=5153.682035446167, DF093=165600, DF094=1.0244548320770264e-07, DF095=-0.8191623776219785, DF096=3.7066638469696045e-07, DF097=0.3076538788154721, DF098=210.15625, DF099=-0.3298261258751154, DF100=-2.4937207854236476e-09, DF101=-1.7695128917694092e-08, DF102=0, DF103=0, DF137=0)>
<RTCM(1019, DF002=1019, DF009=13, DF076=304, DF077=0, DF078=1, DF079=-1.6825651982799172e-11, DF071=40, DF081=165600, DF082=0.0, DF083=1.0231815394945443e-12, DF084=0.0006954469718039036, DF085=40, DF086=-42.6875, DF087=1.4050556274014525e-09, DF088=0.8864637371152639, DF089=-2.2351741790771484e-06, DF090=0.00885970308445394, DF091=6.310641765594482e-06, DF092=5153.676307678223, DF093=165600, DF094=6.891787052154541e-08, DF095=-0.0793601619079709, DF096=-6.332993507385254e-08, DF097=0.3098363010212779, DF098=263.375, DF099=0.3067631945014, DF100=-2.5204371922882274e-09, DF101=-1.1175870895385742e-08, DF102=0, DF103=0, DF137=0)>
<NMEA(GPGGA, time=20:14:52, lat=49.1880412833, NS=N, lon=-123.1168458, EW=W, quality=2, numSV=10, HDOP=0.8, alt=3.623, altUnit=M, sep=-16.829, sepUnit=M, diffAge=, diffStation=)>
<NMEA(GPRMC, time=20:14:52, status=A, lat=49.1880412833, NS=N, lon=-123.1168458, EW=W, spd=0.001, cog=75.52, date=2025-02-03, mv=, mvEW=, posMode=D, navStatus=V)>
<NMEA(GPGLL, lat=49.1880412833, NS=N, lon=-123.1168458, EW=W, time=20:14:52, status=A, posMode=D)>
<NMEA(GPVTG, cogt=75.52, cogtUnit=T, cogm=, cogmUnit=M, sogn=0.001, sognUnit=N, sogk=0.002, sogkUnit=K, posMode=D)>
<NMEA(GPGSA, opMode=A, navMode=3, svid_01=1, svid_02=2, svid_03=13, svid_04=14, svid_05=15, svid_06=17, svid_07=19, svid_08=22, svid_09=24, svid_10=30, svid_11=, svid_12=, PDOP=1.52, HDOP=0.8, VDOP=1.3, systemId=1)>
<NMEA(GPGSV, numMsg=3, msgNum=1, numSV=11, svid_01=1, elv_01=23.0, az_01=60, cno_01=44, svid_02=2, elv_02=24.0, az_02=51, cno_02=44, svid_03=13, elv_03=37.0, az_03=220, cno_03=31, svid_04=14, elv_04=58.0, az_04=74, cno_04=39, signalID=1)>
<NMEA(GPGSV, numMsg=3, msgNum=2, numSV=11, svid_01=15, elv_01=29.0, az_01=264, cno_01=25, svid_02=17, elv_02=72.0, az_02=124, cno_02=35, svid_03=19, elv_03=50.0, az_03=189, cno_03=30, svid_04=22, elv_04=78.0, az_04=43, cno_04=36, signalID=1)>
<NMEA(GPGSV, numMsg=3, msgNum=3, numSV=11, svid_01=24, elv_01=26.0, az_01=306, cno_01=23, svid_02=30, elv_02=27.0, az_02=139, cno_02=30, svid_03=44, elv_03=33.0, az_03=171, cno_03=27, signalID=1)>
<NMEA(GPGSV, numMsg=1, msgNum=1, numSV=4, svid_01=1, elv_01=23.0, az_01=60, cno_01=46, svid_02=14, elv_02=58.0, az_02=74, cno_02=37, svid_03=24, elv_03=26.0, az_03=306, cno_03=33, svid_04=30, elv_04=27.0, az_04=139, cno_04=25, signalID=8)>
<NMEA(PQTMDRCAL, NOMINAL, field_01=1, field_02=0, field_03=1)>
<NMEA(PQTMVEHATT, NOMINAL, field_01=1, field_02=5940169, field_03=0.000000, field_04=0.000000, field_05=75.519676, field_06=89.989998, field_07=179.990005, field_08=7.961974)>
<NMEA(PQTMDRPVA, NOMINAL, field_01=1, field_02=5940169, field_03=201452.000, field_04=1, field_05=49.18804128, field_06=-123.11684579, field_07=3.623, field_08=-16.829, field_09=0.000, field_10=0.001, field_11=0.001, field_12=0.001, field_13=0.000000, field_14=0.000000, field_15=75.519676)>
<RTCM(1005, DF002=1005, DF003=3335, DF021=0, DF022=1, DF023=1, DF024=1, DF141=0, DF025=-2281889.0496, DF142=1, DF001_1=0, DF026=-3498163.1232000003, DF364=0, DF027=4804237.8816)>
<RTCM(1074, DF002=1074, DF003=3335, DF004=159311000, DF393=1, DF409=0, DF001_7=0, DF411=1, DF412=0, DF417=0, DF418=0, DF394=13839180141554565120, NSat=10, DF395=1073742336, NSig=2, DF396=965295, NCell=14, PRN_01=001, PRN_02=002, PRN_03=013, PRN_04=014, PRN_05=015, PRN_06=017, PRN_07=019, PRN_08=022, PRN_09=024, PRN_10=030, DF397_01=78, DF397_02=78, DF397_03=73, DF397_04=69, DF397_05=75, DF397_06=68, DF397_07=71, DF397_08=68, DF397_09=76, DF397_10=76, DF398_01=0.0439453125, DF398_02=0.953125, DF398_03=0.52734375, DF398_04=0.2275390625, DF398_05=0.2041015625, DF398_06=0.29296875, DF398_07=0.068359375, DF398_08=0.8095703125, DF398_09=0.1376953125, DF398_10=0.51953125, CELLPRN_01=001, CELLSIG_01=1C, CELLPRN_02=001, CELLSIG_02=5Q, CELLPRN_03=002, CELLSIG_03=1C, CELLPRN_04=013, CELLSIG_04=1C, CELLPRN_05=014, CELLSIG_05=1C, CELLPRN_06=014, CELLSIG_06=5Q, CELLPRN_07=015, CELLSIG_07=1C, CELLPRN_08=017, CELLSIG_08=1C, CELLPRN_09=019, CELLSIG_09=1C, CELLPRN_10=022, CELLSIG_10=1C, CELLPRN_11=024, CELLSIG_11=1C, CELLPRN_12=024, CELLSIG_12=5Q, CELLPRN_13=030, CELLSIG_13=1C, CELLPRN_14=030, CELLSIG_14=5Q, DF400_01=-7.605552673339844e-05, DF400_02=-5.5789947509765625e-05, DF400_03=-0.00011843442916870117, DF400_04=0.00029653310775756836, DF400_05=-0.00047969818115234375, DF400_06=-0.0004939436912536621, DF400_07=-0.00017267465591430664, DF400_08=0.0002677440643310547, DF400_09=-0.00012701749801635742, DF400_10=-7.957220077514648e-05, DF400_11=-9.751319885253906e-05, DF400_12=-0.0001404881477355957, DF400_13=0.0002110600471496582, DF400_14=0.00024062395095825195, DF401_01=-3.277324140071869e-05, DF401_02=5.3979456424713135e-05, DF401_03=-9.678676724433899e-05, DF401_04=0.0002818554639816284, DF401_05=-0.0005075223743915558, DF401_06=-0.0004120972007513046, DF401_07=-0.00390625, DF401_08=0.00030309706926345825, DF401_09=-0.0001425277441740036, DF401_10=-0.00012349523603916168, DF401_11=-9.840168058872223e-05, DF401_12=-7.95908272266388e-05, DF401_13=0.0002186167985200882, DF401_14=0.00028524547815322876, DF402_01=15, DF402_02=15, DF402_03=15, DF402_04=11, DF402_05=11, DF402_06=15, DF402_07=0, DF402_08=15, DF402_09=12, DF402_10=12, DF402_11=0, DF402_12=12, DF402_13=14, DF402_14=6, DF420_01=0, DF420_02=0, DF420_03=0, DF420_04=0, DF420_05=0, DF420_06=0, DF420_07=1, DF420_08=0, DF420_09=0, DF420_10=0, DF420_11=1, DF420_12=0, DF420_13=0, DF420_14=0, DF403_01=44, DF403_02=47, DF403_03=44, DF403_04=31, DF403_05=39, DF403_06=37, DF403_07=27, DF403_08=36, DF403_09=31, DF403_10=36, DF403_11=23, DF403_12=34, DF403_13=30, DF403_14=26)>
<RTCM(1084, DF002=1084, DF003=3335, DF416=1, DF034=83693000, DF393=1, DF409=0, DF001_7=0, DF411=1, DF412=0, DF417=0, DF418=0, DF394=0, NSat=0, DF395=0, NSig=0, DF396=0, NCell=0)>
<RTCM(1094, DF002=1094, DF003=3335, DF248=159311000, DF393=1, DF409=0, DF001_7=0, DF411=1, DF412=0, DF417=0, DF418=0, DF394=0, NSat=0, DF395=0, NSig=0, DF396=0, NCell=0)>
<RTCM(1124, DF002=1124, DF003=3335, DF427=159297000, DF393=1, DF409=0, DF001_7=0, DF411=1, DF412=0, DF417=0, DF418=0, DF394=0, NSat=0, DF395=0, NSig=0, DF396=0, NCell=0)>
<RTCM(1114, DF002=1114, DF003=3335, DF428=159311000, DF393=0, DF409=0, DF001_7=0, DF411=1, DF412=0, DF417=0, DF418=0, DF394=0, NSat=0, DF395=0, NSig=0, DF396=0, NCell=0)>
<RTCM(1019, DF002=1019, DF009=30, DF076=304, DF077=0, DF078=1, DF079=-7.560174708487466e-11, DF071=24, DF081=165600, DF082=0.0, DF083=8.640199666842818e-12, DF084=-0.00022429926320910454, DF085=24, DF086=-15.84375, DF087=1.5912746675894596e-09, DF088=0.030834850389510393, DF089=-7.618218660354614e-07, DF090=0.007354247267358005, DF091=1.0719522833824158e-05, DF092=5153.740089416504, DF093=165600, DF094=5.960464477539063e-08, DF095=0.20699452329427004, DF096=1.341104507446289e-07, DF097=0.29786618147045374, DF098=159.34375, DF099=-0.7765767597593367, DF100=-2.6483348847250454e-09, DF101=3.725290298461914e-09, DF102=0, DF103=0, DF137=0)>
<RTCM(1019, DF002=1019, DF009=14, DF076=304, DF077=0, DF078=1, DF079=8.36735125631094e-11, DF071=37, DF081=165600, DF082=0.0, DF083=6.821210263296962e-12, DF084=0.0005921642296016216, DF085=805, DF086=99.0625, DF087=1.5934347175061703e-09, DF088=-0.1817395738326013, DF089=5.150213837623596e-06, DF090=0.005274933064356446, DF091=8.691102266311646e-06, DF092=5153.7083950042725, DF093=165600, DF094=1.2479722499847412e-07, DF095=0.5479801655746996, DF096=4.0978193283081055e-08, DF097=0.30042430665344, DF098=201.5625, DF099=-0.9111606036312878, DF100=-2.6707311917562038e-09, DF101=-7.916241884231567e-09, DF102=0, DF103=0, DF137=0)>
<RTCM(1019, DF002=1019, DF009=15, DF076=304, DF077=0, DF078=1, DF079=3.672084858408198e-11, DF071=70, DF081=165584, DF082=0.0, DF083=4.433786671143025e-12, DF084=0.00025934865698218346, DF085=70, DF086=-23.03125, DF087=1.673470251262188e-09, DF088=0.6460318635217845, DF089=-1.469627022743225e-06, DF090=0.016120992717333138, DF091=5.150213837623596e-06, DF092=5153.751167297363, DF093=165584, DF094=1.8998980522155762e-07, DF095=-0.17610172228887677, DF096=-3.073364496231079e-07, DF097=0.2986149648204446, DF098=266.90625, DF099=0.44301020121201873, DF100=-2.663568920979742e-09, DF101=-1.0244548320770264e-08, DF102=0, DF103=0, DF137=0)>
<RTCM(1019, DF002=1019, DF009=19, DF076=304, DF077=0, DF078=1, DF079=-1.9895196601282805e-11, DF071=26, DF081=165600, DF082=0.0, DF083=4.433786671143025e-12, DF084=0.0005939379334449768, DF085=26, DF086=-3.8125, DF087=1.5459136193385348e-09, DF088=-0.4364247927442193, DF089=-1.9744038581848145e-07, DF090=0.010111645911820233, DF091=4.041939973831177e-06, DF092=5153.605508804321, DF093=165600, DF094=-8.009374141693115e-08, DF095=0.9078253535553813, DF096=-1.3597309589385986e-07, DF097=0.3070014822296798, DF098=305.25, DF099=0.8628232232294977, DF100=-2.711203705985099e-09, DF101=-1.5366822481155396e-08, DF102=0, DF103=0, DF137=0)>
